$GNTXT,01,01,00,ESP_RST_POWERON*1C
$GNTXT,01,01,03,vv4.0*78
$GNTXT,01,01,04,HPG 1.32*34
$GNTXT,01,01,11,7D41F27BD9*5B
$GNTXT,01,01,07,3346*54
$GNTXT,01,01,09,240421,125031*71
$GNRMC,125028.60,V,,,,,,,210424,,,N,V*12
$GNGGA,125028.60,,,,,0,00,99.99,,,,,,*72
$GNGSA,A,1,,,,,,,,,,,,,99.99,99.99,99.99,1*33
$GNGSA,A,1,,,,,,,,,,,,,99.99,99.99,99.99,2*30
$GNGSA,A,1,,,,,,,,,,,,,99.99,99.99,99.99,3*31
$GNGSA,A,1,,,,,,,,,,,,,99.99,99.99,99.99,4*36
$GNGSA,A,1,,,,,,,,,,,,,99.99,99.99,99.99,5*37
$GPGSV,3,1,09,07,,,38,10,,,49,16,74,198,44,18,,,46,1*50
$GPGSV,3,2,09,23,,,47,26,,,47,27,,,46,36,27,139,47,1*56
$GPGSV,3,3,09,49,36,171,45,1*53
$GPGSV,1,1,02,07,,,36,10,,,42,5*67
$GLGSV,2,1,06,,,,49,,,,36,,,,40,,,,48,1*7D
$GLGSV,2,2,06,,,,46,,,,43,1*7B
$GLGSV,1,1,04,,,,46,,,,32,,,,42,,,,41,3*7E
$GAGSV,1,1,01,15,,,44,7*76
$GBGSV,2,1,06,19,,,43,24,,,47,35,,,46,44,,,48,1*71
$GBGSV,2,2,06,48,,,40,57,,,44,1*7A
$GQGSV,1,1,00,0*64
$GNGST,125028.60,0.0000,14131802,14131802,89,5773503,5773503,5773503*42
$GNRMC,125029.60,V,,,,,,,210424,,,N,V*13
$GNGGA,125029.60,,,,,0,00,99.99,,,,,,*73
$GNGSA,A,1,,,,,,,,,,,,,99.99,99.99,99.99,1*33
$GNGSA,A,1,,,,,,,,,,,,,99.99,99.99,99.99,2*30
$GNGSA,A,1,,,,,,,,,,,,,99.99,99.99,99.99,3*31
$GNGSA,A,1,,,,,,,,,,,,,99.99,99.99,99.99,4*36
$GNGSA,A,1,,,,,,,,,,,,,99.99,99.99,99.99,5*37
$GPGSV,3,1,09,07,,,38,10,,,49,16,74,198,44,18,,,46,1*50
$GPGSV,3,2,09,23,,,47,26,,,47,27,,,46,36,27,139,47,1*56
$GPGSV,3,3,09,49,36,171,45,1*53
$GPGSV,1,1,02,07,,,35,10,,,43,5*65
$GLGSV,2,1,06,,,,49,,,,36,,,,39,,,,47,1*7C
$GLGSV,2,2,06,,,,46,,,,42,1*7A
$GLGSV,1,1,04,,,,46,,,,33,,,,42,,,,41,3*7F
$GAGSV,1,1,01,15,,,44,7*76
$GBGSV,2,1,06,19,,,44,24,,,47,35,,,46,44,,,48,1*76
$GBGSV,2,2,06,48,,,41,57,,,44,1*7B
$GQGSV,1,1,00,0*64
$GNGST,125029.60,0.0000,14131802,14131802,89,5773503,5773503,5773503*43
$GNRMC,125030.60,A,4659.4937480,N,00125.6167078,W,0.021,,210424,,,A,V*03
$GNGGA,125030.60,4659.4937480,N,00125.6167078,W,1,07,1.21,35.338,M,48.016,M,,*67
$GNGSA,A,3,07,16,23,27,18,26,10,,,,,,2.18,1.21,1.82,1*0B
$GNGSA,A,3,,,,,,,,,,,,,2.18,1.21,1.82,2*00
$GNGSA,A,3,,,,,,,,,,,,,2.18,1.21,1.82,3*01
$GNGSA,A,3,,,,,,,,,,,,,2.18,1.21,1.82,4*06
$GNGSA,A,3,,,,,,,,,,,,,2.18,1.21,1.82,5*07
$GPGSV,3,1,09,07,14,318,39,10,35,142,48,16,74,198,44,18,33,053,46,1*68
$GPGSV,3,2,09,23,44,096,47,26,40,165,47,27,68,305,46,36,27,139,46,1*66
$GPGSV,3,3,09,49,36,171,46,1*50
$GPGSV,2,1,06,07,14,318,35,10,35,142,42,18,33,053,38,23,44,096,43,5*60
$GPGSV,2,2,06,26,40,165,38,27,68,305,44,5*62
$GLGSV,2,1,06,,,,47,,,,42,,,,46,,,,37,1*7E
$GLGSV,2,2,06,,,,39,,,,49,1*79
$GLGSV,1,1,04,,,,41,,,,42,,,,46,,,,33,3*7F
$GAGSV,1,1,01,15,,,44,7*76
$GBGSV,2,1,06,19,,,43,24,,,47,35,,,46,44,,,48,1*71
$GBGSV,2,2,06,48,,,41,57,,,44,1*7B
$GQGSV,1,1,00,0*64
$GNGST,125030.60,140,6.8,5.4,38,2.6,2.5,4.3*7F
$GNRMC,125031.60,A,4659.4937482,N,00125.6167015,W,0.031,,210424,,,A,V*0A
$GNGGA,125031.60,4659.4937482,N,00125.6167015,W,1,07,1.21,35.324,M,48.016,M,,*62
$GNGSA,A,3,07,16,23,27,18,26,10,,,,,,2.18,1.21,1.82,1*0B
$GNGSA,A,3,,,,,,,,,,,,,2.18,1.21,1.82,2*00
$GNGSA,A,3,,,,,,,,,,,,,2.18,1.21,1.82,3*01
$GNGSA,A,3,,,,,,,,,,,,,2.18,1.21,1.82,4*06
$GNGSA,A,3,,,,,,,,,,,,,2.18,1.21,1.82,5*07
$GPGSV,3,1,09,07,14,318,40,10,35,142,48,16,74,198,44,18,33,053,46,1*66
$GPGSV,3,2,09,23,44,096,47,26,40,165,47,27,68,305,46,36,27,139,46,1*66
$GPGSV,3,3,09,49,36,171,46,1*50
$GPGSV,2,1,06,07,14,318,36,10,35,142,42,18,33,053,41,23,44,096,46,6*6B
$GPGSV,2,2,06,26,40,165,42,27,68,305,44,6*6C
$GLGSV,2,1,06,,,,47,,,,42,,,,46,,,,37,1*7E
$GLGSV,2,2,06,,,,40,,,,48,1*76
$GLGSV,1,1,04,,,,41,,,,42,,,,46,,,,33,3*7F
$GAGSV,1,1,01,15,,,44,7*76
$GBGSV,2,1,06,19,,,43,24,,,47,35,,,46,44,,,48,1*71
$GBGSV,2,2,06,48,,,41,57,,,44,1*7B
$GQGSV,1,1,00,0*64
$GNGST,125031.60,73,4.2,3.1,48,1.5,1.5,2.9*4C
$GNRMC,125032.60,A,4659.4937548,N,00125.6167001,W,0.061,,210424,,,A,V*0E
$GNGGA,125032.60,4659.4937548,N,00125.6167001,W,1,07,1.21,35.382,M,48.016,M,,*6F
$GNGSA,A,3,07,16,23,27,18,26,10,,,,,,2.18,1.21,1.82,1*0B
$GNGSA,A,3,,,,,,,,,,,,,2.18,1.21,1.82,2*00
$GNGSA,A,3,,,,,,,,,,,,,2.18,1.21,1.82,3*01
$GNGSA,A,3,,,,,,,,,,,,,2.18,1.21,1.82,4*06
$GNGSA,A,3,,,,,,,,,,,,,2.18,1.21,1.82,5*07
$GPGSV,3,1,09,07,14,318,40,10,35,142,48,16,74,198,44,18,33,053,46,1*66
$GPGSV,3,2,09,23,44,096,47,26,40,165,47,27,68,305,46,36,27,139,46,1*66
$GPGSV,3,3,09,49,36,171,46,1*50
$GPGSV,2,1,06,07,14,318,36,10,35,142,42,18,33,053,42,23,44,096,47,6*69
$GPGSV,2,2,06,26,40,165,42,27,68,305,44,6*6C
$GLGSV,2,1,06,,,,48,,,,42,,,,46,,,,49,1*78
$GLGSV,2,2,06,,,,37,,,,39,1*70
$GLGSV,2,1,05,,,,41,,,,42,,,,47,,,,33,3*7C
$GLGSV,2,2,05,,,,43,3*78
$GAGSV,1,1,01,15,,,44,7*76
$GBGSV,2,1,06,19,,,43,24,,,47,35,,,46,44,,,48,1*71
$GBGSV,2,2,06,48,,,42,57,,,44,1*78
$GBGSV,1,1,01,12,,,47,B*04
$GQGSV,1,1,00,0*64
$GNGST,125032.60,68,3.3,2.4,50,1.1,1.2,2.4*40
$GNRMC,125033.60,A,4659.4937679,N,00125.6166846,W,0.018,,210424,,,A,V*0A
$GNGGA,125033.60,4659.4937679,N,00125.6166846,W,1,07,1.21,35.477,M,48.016,M,,*68
$GNGSA,A,3,07,16,23,27,18,26,10,,,,,,2.18,1.21,1.82,1*0B
$GNGSA,A,3,,,,,,,,,,,,,2.18,1.21,1.82,2*00
$GNGSA,A,3,,,,,,,,,,,,,2.18,1.21,1.82,3*01
$GNGSA,A,3,,,,,,,,,,,,,2.18,1.21,1.82,4*06
$GNGSA,A,3,,,,,,,,,,,,,2.18,1.21,1.82,5*07
$GPGSV,3,1,09,07,14,318,40,10,35,142,48,16,74,198,44,18,33,053,46,1*66
$GPGSV,3,2,09,23,44,096,47,26,40,165,46,27,68,305,46,36,27,139,46,1*67
$GPGSV,3,3,09,49,36,171,45,1*53
$GPGSV,2,1,06,07,14,318,36,10,35,142,41,18,33,053,42,23,44,096,47,6*6A
$GPGSV,2,2,06,26,40,165,43,27,68,305,44,6*6D
$GLGSV,2,1,06,,,,48,,,,42,,,,46,,,,49,1*78
$GLGSV,2,2,06,,,,37,,,,40,1*7E
$GLGSV,2,1,05,,,,41,,,,42,,,,46,,,,33,3*7D
$GLGSV,2,2,05,,,,44,3*7F
$GAGSV,1,1,01,15,,,44,7*76
$GBGSV,2,1,06,19,,,43,24,,,47,35,,,46,44,,,48,1*71
$GBGSV,2,2,06,48,,,42,57,,,44,1*78
$GBGSV,1,1,01,12,,,47,B*04
$GQGSV,1,1,00,0*64
$GNGST,125033.60,68,2.8,2.0,50,0.96,1.0,2.0*76
$GNRMC,125034.60,A,4659.4937803,N,00125.6166766,W,0.017,,210424,,,A,V*0C
$GNGGA,125034.60,4659.4937803,N,00125.6166766,W,1,07,1.21,35.548,M,48.016,M,,*6C
$GNGSA,A,3,07,16,23,27,18,26,10,,,,,,2.18,1.21,1.82,1*0B
$GNGSA,A,3,,,,,,,,,,,,,2.18,1.21,1.82,2*00
$GNGSA,A,3,,,,,,,,,,,,,2.18,1.21,1.82,3*01
$GNGSA,A,3,,,,,,,,,,,,,2.18,1.21,1.82,4*06
$GNGSA,A,3,,,,,,,,,,,,,2.18,1.21,1.82,5*07
$GPGSV,3,1,09,07,14,318,40,10,35,142,48,16,74,198,44,18,33,053,46,1*66
$GPGSV,3,2,09,23,44,096,47,26,40,165,46,27,68,305,46,36,27,139,46,1*67
$GPGSV,3,3,09,49,36,171,46,1*50
$GPGSV,2,1,06,07,14,318,36,10,35,142,41,18,33,053,42,23,44,096,47,6*6A
$GPGSV,2,2,06,26,40,165,43,27,68,305,44,6*6D
$GLGSV,2,1,06,,,,48,,,,42,,,,46,,,,49,1*78
$GLGSV,2,2,06,,,,37,,,,40,1*7E
$GLGSV,2,1,06,,,,44,,,,41,,,,42,,,,47,3*7F
$GLGSV,2,2,06,,,,34,,,,33,3*7B
$GAGSV,1,1,01,15,,,44,7*76
$GBGSV,2,1,06,19,,,43,24,,,47,35,,,46,44,,,48,1*71
$GBGSV,2,2,06,48,,,42,57,,,44,1*78
$GBGSV,1,1,01,12,,,47,B*04
$GQGSV,1,1,00,0*64
$GNGST,125034.60,68,2.5,1.8,51,0.85,0.90,1.8*47
$GNRMC,125133.60,A,4659.4940178,N,00125.6169208,W,0.015,,210424,,,A,V*0F
$GNGGA,125133.60,4659.4940178,N,00125.6169208,W,1,12,0.61,36.070,M,48.016,M,,*61
$GNGSA,A,3,07,16,23,27,18,26,10,,,,,,1.14,0.61,0.97,1*04
$GNGSA,A,3,82,73,80,83,67,66,74,,,,,,1.14,0.61,0.97,2*00
$GNGSA,A,3,15,34,27,30,,,,,,,,,1.14,0.61,0.97,3*0B
$GNGSA,A,3,19,24,25,44,12,,,,,,,,1.14,0.61,0.97,4*03
$GNGSA,A,3,,,,,,,,,,,,,1.14,0.61,0.97,5*08
$GPGSV,3,1,11,07,15,317,38,08,,,39,10,35,141,47,16,74,197,43,1*55
$GPGSV,3,2,11,18,32,053,46,23,44,095,48,26,39,165,46,27,69,306,45,1*68
$GPGSV,3,3,11,36,31,148,46,40,14,116,36,49,36,171,45,1*50
$GPGSV,2,1,06,07,15,317,37,10,35,141,41,18,32,053,41,23,44,095,47,6*67
$GPGSV,2,2,06,26,39,165,44,27,69,306,44,6*66
$GLGSV,2,1,07,66,15,027,34,67,18,079,44,73,62,246,50,74,39,317,41,1*70
$GLGSV,2,2,07,80,24,180,37,82,34,048,47,83,70,353,38,1*4C
$GLGSV,2,1,07,66,15,027,32,67,18,079,44,73,62,246,47,74,39,317,10,3*76
$GLGSV,2,2,07,80,24,180,30,82,34,048,44,83,70,353,43,3*46
$GAGSV,1,1,04,15,80,214,48,27,73,261,48,30,40,156,45,34,44,052,45,2*78
$GAGSV,1,1,04,15,80,214,45,27,73,261,44,30,40,156,43,34,44,052,47,7*78
$GBGSV,2,1,08,12,37,262,41,19,22,093,44,24,47,263,48,25,18,319,40,1*74
$GBGSV,2,2,08,35,,,46,44,61,273,47,48,,,41,57,,,43,1*44
$GBGSV,1,1,01,12,37,262,49,B*38
$GQGSV,1,1,00,0*64
$GNGST,125133.60,25,0.75,0.68,19,0.30,0.28,0.72*77
$GNRMC,125134.60,A,4659.4940178,N,00125.6169189,W,0.012,,210424,,,A,V*05
$GNGGA,125134.60,4659.4940178,N,00125.6169189,W,1,12,0.61,35.965,M,48.016,M,,*62
$GNGSA,A,3,07,16,23,27,18,26,10,,,,,,1.14,0.61,0.97,1*04
$GNGSA,A,3,82,73,80,83,67,66,74,,,,,,1.14,0.61,0.97,2*00
$GNGSA,A,3,15,34,27,30,,,,,,,,,1.14,0.61,0.97,3*0B
$GNGSA,A,3,19,24,25,44,12,,,,,,,,1.14,0.61,0.97,4*03
$GNGSA,A,3,,,,,,,,,,,,,1.14,0.61,0.97,5*08
$GPGSV,3,1,11,07,15,317,38,08,,,39,10,35,141,47,16,74,197,43,1*55
$GPGSV,3,2,11,18,32,053,46,23,44,095,47,26,39,165,46,27,69,306,45,1*67
$GPGSV,3,3,11,36,31,148,46,40,14,116,36,49,36,171,45,1*50
$GPGSV,2,1,06,07,15,317,37,10,35,141,41,18,32,053,41,23,44,095,47,6*67
$GPGSV,2,2,06,26,39,165,43,27,69,306,44,6*61
$GLGSV,2,1,07,66,15,027,33,67,18,079,43,73,62,246,50,74,39,317,41,1*70
$GLGSV,2,2,07,80,24,180,37,82,34,048,47,83,70,353,38,1*4C
$GLGSV,2,1,07,66,15,027,32,67,18,079,44,73,62,246,47,74,39,317,08,3*7F
$GLGSV,2,2,07,80,24,180,29,82,34,048,44,83,70,353,43,3*4E
$GAGSV,1,1,04,15,80,214,48,27,73,261,48,30,40,156,45,34,44,052,45,2*78
$GAGSV,1,1,04,15,80,214,45,27,73,261,44,30,40,156,43,34,44,052,47,7*78
$GBGSV,2,1,08,12,37,262,41,19,22,093,44,24,47,263,48,25,18,319,40,1*74
$GBGSV,2,2,08,35,,,46,44,61,273,47,48,,,41,57,,,42,1*45
$GBGSV,1,1,02,12,37,262,49,19,22,093,15,B*0D
$GQGSV,1,1,00,0*64
$GNGST,125134.60,25,0.75,0.68,18,0.30,0.28,0.72*71
$GNRMC,125135.60,A,4659.4940157,N,00125.6169156,W,0.004,,210424,,,A,V*0C
$GNGGA,125135.60,4659.4940157,N,00125.6169156,W,1,12,0.61,35.867,M,48.016,M,,*6F
$GNGSA,A,3,07,16,23,27,18,26,10,,,,,,1.14,0.61,0.97,1*04
$GNGSA,A,3,82,73,80,83,67,66,74,,,,,,1.14,0.61,0.97,2*00
$GNGSA,A,3,15,34,27,30,,,,,,,,,1.14,0.61,0.97,3*0B
$GNGSA,A,3,19,24,25,44,12,,,,,,,,1.14,0.61,0.97,4*03
$GNGSA,A,3,,,,,,,,,,,,,1.14,0.61,0.97,5*08
$GPGSV,3,1,11,07,15,317,38,08,,,38,10,35,141,46,16,74,197,44,1*52
$GPGSV,3,2,11,18,32,053,46,23,44,095,47,26,39,165,46,27,69,306,45,1*67
$GPGSV,3,3,11,36,31,148,46,40,14,116,36,49,36,171,45,1*50
$GPGSV,2,1,06,07,15,317,37,10,35,141,41,18,32,053,41,23,44,095,47,6*67
$GPGSV,2,2,06,26,39,165,43,27,69,306,44,6*61
$GLGSV,2,1,08,66,15,027,34,67,18,079,43,73,62,246,50,74,39,317,42,1*7B
$GLGSV,2,2,08,80,24,180,37,82,34,048,47,83,70,353,38,,,,37,1*47
$GLGSV,2,1,07,66,15,027,32,67,18,079,44,73,62,246,47,74,39,317,08,3*7F
$GLGSV,2,2,07,80,24,180,29,82,34,048,44,83,70,353,42,3*4F
$GAGSV,1,1,04,15,80,214,48,27,73,261,49,30,40,156,46,34,44,052,45,2*7A
$GAGSV,1,1,04,15,80,214,45,27,73,261,43,30,40,156,43,34,44,052,47,7*7F
$GBGSV,2,1,08,12,37,262,40,19,22,093,44,24,47,263,47,25,18,319,41,1*7B
$GBGSV,2,2,08,35,,,46,44,61,273,48,48,,,41,57,,,43,1*4B
$GBGSV,1,1,02,12,37,262,48,19,22,093,11,B*08
$GQGSV,1,1,00,0*64
$GNGST,125135.60,25,0.75,0.68,18,0.31,0.28,0.72*71
$GNGGA,130227.60,4658.5197259,N,00125.9792668,W,4,12,0.55,37.583,M,48.028,M,1.6,0000*40
$GNGSA,A,3,07,16,23,27,18,26,10,08,21,,,,1.03,0.55,0.88,1*00
$GNGSA,A,3,82,73,80,83,67,66,84,74,,,,,1.03,0.55,0.88,2*03
$GNGSA,A,3,15,21,34,27,30,13,,,,,,,1.03,0.55,0.88,3*05
$GNGSA,A,3,13,19,24,25,44,12,,,,,,,1.03,0.55,0.88,4*0E
$GNGSA,A,3,,,,,,,,,,,,,1.03,0.55,0.88,5*07
$GPGSV,4,1,13,07,16,313,41,08,37,290,46,10,39,138,46,15,04,046,35,1*65
$GPGSV,4,2,13,16,70,189,45,18,28,053,43,21,12,236,41,23,45,089,45,1*61
$GPGSV,4,3,13,26,35,166,46,27,72,313,47,30,01,339,25,36,31,148,45,1*65
$GPGSV,4,4,13,49,36,171,44,1*59
$GPGSV,3,1,09,07,16,313,38,08,37,290,43,10,39,138,42,15,04,046,24,6*61
$GPGSV,3,2,09,18,28,053,44,23,45,089,45,26,35,166,42,27,72,313,44,6*6A
$GPGSV,3,3,09,30,01,339,23,6*50
$GPGSV,1,1,01,40,14,116,,0*53
$GLGSV,3,1,09,66,14,022,44,67,21,074,45,68,06,120,27,73,58,236,49,1*7B
$GLGSV,3,2,09,74,43,312,45,80,18,180,46,82,29,051,47,83,67,007,37,1*70
$GLGSV,3,3,09,84,32,258,40,1*47
$GLGSV,2,1,08,66,14,022,40,67,21,074,40,68,06,120,27,73,58,236,47,3*76
$GLGSV,2,2,08,80,18,180,39,82,29,051,44,83,67,007,42,84,32,258,35,3*7A
$GAGSV,2,1,07,09,02,028,39,13,28,230,44,15,84,219,47,21,29,312,44,2*79
$GAGSV,2,2,07,27,72,246,47,30,36,157,46,34,41,052,47,2*43
$GAGSV,2,1,07,09,02,028,35,13,28,230,44,15,84,219,44,21,29,312,42,7*75
$GAGSV,2,2,07,27,72,246,44,30,36,157,46,34,41,052,44,7*46
$GBGSV,2,1,08,12,41,266,42,19,24,089,44,24,46,257,47,25,20,316,40,1*72
$GBGSV,2,2,08,35,61,062,46,44,65,279,45,48,,,42,57,,,42,1*79
$GBGSV,1,1,03,12,41,266,47,13,26,038,40,19,24,089,07,B*30
$GBGSV,2,1,06,05,12,112,,20,14,040,,22,10,140,,29,05,077,,0*7F
$GBGSV,2,2,06,34,12,262,,38,03,028,,0*71
$GQGSV,1,1,00,0*64
$GNGST,130227.60,3.9,0.011,0.0094,22,0.010,0.010,0.010*52
$GNGGA,131246.60,4658.2695065,N,00119.9326118,W,4,12,0.52,48.615,M,47.944,M,1.6,0000*42
$GNGSA,A,3,07,16,23,27,18,26,10,08,,,,,1.00,0.52,0.86,1*09
$GNGSA,A,3,82,73,80,83,67,66,84,74,68,,,,1.00,0.52,0.86,2*07
$GNGSA,A,3,15,21,34,27,30,13,,,,,,,1.00,0.52,0.86,3*0F
$GNGSA,A,3,13,19,24,08,44,12,,,,,,,1.00,0.52,0.86,4*0B
$GNGSA,A,3,,,,,,,,,,,,,1.00,0.52,0.86,5*0D
$GPGSV,3,1,11,08,40,292,31,10,43,135,48,15,05,042,40,16,65,185,46,1*65
$GPGSV,3,2,11,18,24,054,43,23,45,082,46,26,30,166,45,27,76,325,46,1*61
$GPGSV,3,3,11,36,31,148,43,40,14,116,32,49,36,171,45,1*51
$GPGSV,2,1,08,07,16,310,13,08,40,292,30,10,43,135,44,15,05,042,37,6*6C
$GPGSV,2,2,08,18,24,054,43,23,45,082,43,26,30,166,42,27,76,325,45,6*6E
$GPGSV,1,1,03,02,02,238,,21,16,239,,30,03,336,,0*55
$GLGSV,3,1,10,66,12,017,42,67,24,068,46,68,11,117,48,73,53,228,50,1*79
$GLGSV,3,2,10,74,46,306,39,75,03,339,15,80,13,180,47,82,26,054,47,1*76
$GLGSV,3,3,10,83,64,016,37,84,35,263,25,1*79
$GLGSV,3,1,09,66,12,017,35,67,24,068,38,68,11,117,39,73,53,228,47,3*7A
$GLGSV,3,2,09,75,03,339,15,80,13,180,40,82,26,054,41,83,64,016,42,3*7B
$GLGSV,3,3,09,84,35,263,23,3*4F
$GAGSV,2,1,08,05,02,073,30,09,03,025,34,13,32,233,40,15,88,237,48,2*7C
$GAGSV,2,2,08,21,32,311,29,27,71,235,48,30,32,159,45,34,37,052,47,2*76
$GAGSV,2,1,08,05,02,073,27,09,03,025,34,13,32,233,35,15,88,237,44,7*71
$GAGSV,2,2,08,21,32,311,26,27,71,235,45,30,32,159,43,34,37,052,45,7*75
$GBGSV,2,1,08,12,44,270,35,13,25,037,41,19,26,085,43,24,44,251,41,1*7A
$GBGSV,2,2,08,35,57,066,45,44,68,286,46,48,,,44,57,,,46,1*77
$GBGSV,2,1,05,08,14,029,37,12,44,270,40,13,25,037,41,19,26,085,14,B*03
$GBGSV,2,2,05,24,44,251,15,B*34
$GBGSV,2,1,07,05,12,112,,20,13,037,,22,13,138,,25,23,313,,0*7C
$GBGSV,2,2,07,29,02,079,,34,15,265,,38,02,028,,0*46
$GQGSV,1,1,00,0*64
$GNGST,131246.60,36,0.016,0.0091,132,0.010,0.010,0.010*47